[{"formatted_address":"Kauppakatu 32, 40100 Jyväskylä, Finland","geometry":{"location":{"lat":62.243778,"lng":25.7498265},"viewport":{"northeast":{"lat":62.24515127989271,"lng":25.75112227989273},"southwest":{"lat":62.24245162010727,"lng":25.74842262010728}}},"icon":"https://maps.gstatic.com/mapfiles/place_api/icons/bar-71.png","id":"5a792f0300975b7517b9b6b5c1314205e87972d8","name":"Escape","opening_hours":{"open_now":false},"photos":[{"height":3480,"html_attributions":["<a href=\"https://maps.google.com/maps/contrib/112249186038928311086/photos\">A Google User</a>"],"photo_reference":"CmRaAAAA7XGmtLL0Oy9RglkicT3NvAEh3xwUbPHT3pZiUEMNHRC0YTf7OrrfrFfhBN_7C4jYGDGA9k9RPK0f5gYpyk3gC8nsaTYPJkSFV4scyG7KUe80D8XyuPFSNexWKAkIiwKyEhBQfoH8_2-Mtm2E_Zv1Rf3tGhQI1hXD9CU8fG6RJ5V4Evzf2pYPNw","width":4640}],"place_id":"ChIJXZxafxZ0hUYRlsK7QyznvU0","plus_code":{"compound_code":"6PVX+GW Nisula, Jyväskylä, Finland","global_code":"9GJ76PVX+GW"},"price_level":2,"rating":3.6,"reference":"ChIJXZxafxZ0hUYRlsK7QyznvU0","types":["night_club","bar","point_of_interest","establishment"],"user_ratings_total":48},{"formatted_address":"Kauppakatu 29 A, 40100 Jyväskylä, Finland","geometry":{"location":{"lat":62.2423148,"lng":25.7464471},"viewport":{"northeast":{"lat":62.24363367989272,"lng":25.74786867989272},"southwest":{"lat":62.24093402010728,"lng":25.74516902010727}}},"icon":"https://maps.gstatic.com/mapfiles/place_api/icons/generic_business-71.png","id":"c85e7c9ec3f4c0e15efee09e54bb03a6bb0e4d2b","name":"Mysteeri Jyväskylä - Pakohuone Tarinalla","opening_hours":{"open_now":true},"photos":[{"height":3968,"html_attributions":["<a href=\"https://maps.google.com/maps/contrib/111783806789777721844/photos\">Antti Pekkala</a>"],"photo_reference":"CmRaAAAAeRARwoB8QNoAO3If0MCxmwWOD6539cgOd_YrVrLkU_JLyAhfOoZZD5GcUjOn5OeHrqoaIeBPZOrc3aNUGAx2etuUw62JlrEuPki71Sd1bFaFcRUrtHptCkCoGbaDOA1yEhCGUrvTPqW0h7hWXrzU10viGhSGhqdHmMQf_wOVs-ZRWSGA1JcMDA","width":2976}],"place_id":"ChIJTbpZIC90hUYR_sEXlZiTErM","plus_code":{"compound_code":"6PRW+WH Nisula, Jyväskylä, Finland","global_code":"9GJ76PRW+WH"},"rating":4.8,"reference":"ChIJTbpZIC90hUYR_sEXlZiTErM","types":["point_of_interest","establishment"],"user_ratings_total":67},{"formatted_address":"Sorastajantie 1 A 5, 40320 Jyväskylä, Finland","geometry":{"location":{"lat":62.27054039999999,"lng":25.7844152},"viewport":{"northeast":{"lat":62.27237932989271,"lng":25.78647605},"southwest":{"lat":62.26967967010727,"lng":25.78372825}}},"icon":"https://maps.gstatic.com/mapfiles/place_api/icons/generic_business-71.png","id":"173de8c37c407beff588a070a3457a5312a49689","name":"Prison Island","opening_hours":{"open_now":false},"photos":[{"height":620,"html_attributions":["<a href=\"https://maps.google.com/maps/contrib/113494975982031197530/photos\">A Google User</a>"],"photo_reference":"CmRaAAAAbWcCY0T6K25v3nYXABy0MsvgkVx0Bsrw9mCqDVnHdrBYFliXBY_yblugHU8kMtBnz9zvO0HHBZnMz2Wts9Xzcs9hARu2NbKfBRWBwBLO9zzKDeELxj1Wy8KE8LYBNZ6aEhAhs57IJD21GQ7b-cwC2itxGhTZ2XG-Z-LfYqsj_R8d1ZMFOkCkVA","width":1280}],"place_id":"ChIJuycji4l0hUYRqU2knVO9ODE","plus_code":{"compound_code":"7QCM+6Q Pupuhuhta, Jyväskylä, Finland","global_code":"9GJ77QCM+6Q"},"rating":3.9,"reference":"ChIJuycji4l0hUYRqU2knVO9ODE","types":["point_of_interest","establishment"],"user_ratings_total":26},{"formatted_address":"Väinönkatu 30, 40100 Jyväskylä, Finland","geometry":{"location":{"lat":62.2444255,"lng":25.7482474},"viewport":{"northeast":{"lat":62.24575082989273,"lng":25.74954842989272},"southwest":{"lat":62.24305117010729,"lng":25.74684877010727}}},"icon":"https://maps.gstatic.com/mapfiles/place_api/icons/generic_business-71.png","id":"e539957761d6486e1fd5e5b4e2ab924f795fa299","name":"Wayout Jyväskylä","opening_hours":{"open_now":true},"photos":[{"height":1003,"html_attributions":["<a href=\"https://maps.google.com/maps/contrib/103955983341465545644/photos\">WayOut Jyväskylä</a>"],"photo_reference":"CmRaAAAA9lINLzFrcXorFn_ESz6DBtEN3Ck4tUk0lwhU9D--NZToWFgUjYvkHxxYYX9wsDbYHcA2c-UP_TU96AATF0cG819e4sIuRSI_d1qxSMZEbCYL3Ifx12XH6gZ4fr9AibrGEhCFKzT9k7HqoaHK-WakFtNtGhR3YiCLaIYRF-jErQUbEXv8gMJbVQ","width":1920}],"place_id":"ChIJfVJTMRR0hUYRDO2tdmpUJWk","plus_code":{"compound_code":"6PVX+Q7 Nisula, Jyväskylä, Finland","global_code":"9GJ76PVX+Q7"},"rating":4.6,"reference":"ChIJfVJTMRR0hUYRDO2tdmpUJWk","types":["point_of_interest","establishment"],"user_ratings_total":58},{"formatted_address":"Konttisentie 8, 40800 Jyväskylä, Finland","geometry":{"location":{"lat":62.24772729999999,"lng":25.8847775},"viewport":{"northeast":{"lat":62.24903802989272,"lng":25.88617742989272},"southwest":{"lat":62.24633837010727,"lng":25.88347777010728}}},"icon":"https://maps.gstatic.com/mapfiles/place_api/icons/generic_business-71.png","id":"0c8a0c3c15abb7ece7e2aa54c87d8cfe065ba58e","name":"Music Escape Productions","place_id":"ChIJWVB57qlzhUYRFzk30XYNQjg","plus_code":{"compound_code":"6VXM+3W Tölskä, Jyväskylä, Finland","global_code":"9GJ76VXM+3W"},"rating":0,"reference":"ChIJWVB57qlzhUYRFzk30XYNQjg","types":["point_of_interest","establishment"],"user_ratings_total":0}]